{
  "buildings": [
    {
      "id": "1",
      "name": "Главный корпус",
      "description": "Центральное административное здание университета. Здесь расположены ректорат, деканаты и основные аудитории.",
      "location": {
        "lat": 13.736717,
        "lng": 100.523186,
        "name": "Главный корпус",
        "address": "Улица Университетская, 1"
      },
      "type": "academic",
      "floors": 5,
      "yearBuilt": 1950,
      "icon": "school"
    },
    {
      "id": "2",
      "name": "Научная библиотека",
      "description": "Крупнейшая библиотека университета с более чем 1 млн книг и электронных ресурсов.",
      "location": {
        "lat": 13.737717,
        "lng": 100.524186,
        "name": "Научная библиотека",
        "address": "Улица Университетская, 3"
      },
      "type": "library",
      "floors": 8,
      "yearBuilt": 1975,
      "icon": "library_books"
    },
    {
      "id": "3",
      "name": "Студенческая столовая",
      "description": "Основная столовая для студентов и сотрудников. Вместимость: 500 человек.",
      "location": {
        "lat": 13.735717,
        "lng": 100.522186,
        "name": "Студенческая столовая",
        "address": "Улица Студенческая, 5"
      },
      "type": "dining",
      "floors": 2,
      "yearBuilt": 1980,
      "icon": "restaurant"
    },
    {
      "id": "4",
      "name": "Спортивный комплекс",
      "description": "Современный спортивный комплекс с бассейном, залами и стадионом.",
      "location": {
        "lat": 13.738717,
        "lng": 100.521186,
        "name": "Спортивный комплекс",
        "address": "Улица Спортивная, 10"
      },
      "type": "sport",
      "floors": 3,
      "yearBuilt": 2005,
      "icon": "sports_soccer"
    },
    {
      "id": "5",
      "name": "Общежитие №1",
      "description": "Студенческое общежитие на 300 мест. Комнаты на 2-3 человека.",
      "location": {
        "lat": 13.734717,
        "lng": 100.525186,
        "name": "Общежитие №1",
        "address": "Улица Общежитийная, 1"
      },
      "type": "dormitory",
      "floors": 9,
      "yearBuilt": 1990,
      "icon": "home"
    }
  ],
  "routes": [
    {
      "id": "route_1",
      "name": "От библиотеки к главному корпусу",
      "description": "Пешеходный маршрут через центральную аллею",
      "waypoints": [
        {"lat": 13.737717, "lng": 100.524186},
        {"lat": 13.736717, "lng": 100.523186}
      ],
      "distance": 150,
      "estimatedTime": 2
    }
  ]
}
